<?xml version="1.0"?><Document xmlns:kml="http://www.opengis.net/kml/2.2"><Placemark><name>
		    Nacimiento de Perez Arrunada, Oscar</name><description>
	    Lugar de nacimiento: Navia. Fecha de nacimiento:1999-04-23</description><Point><coordinates>-6.72305555556,43.5411111111</coordinates></Point></Placemark><Placemark><name>
		    Nacimiento de Arrunada Martinez, Carmen</name><description>
	    Lugar de nacimiento: Taramundi. Fecha de nacimiento:1969-10-13</description><Point><coordinates>-7.08972222222,43.3563888889</coordinates></Point></Placemark><Placemark><name>
		    Nacimiento de Martinez Gonzalez, Victoria</name><description>
	    Lugar de nacimiento: Oviedo. Fecha de nacimiento:1932-04-01</description><Point><coordinates>-5.8262014,43.3151619</coordinates></Point></Placemark><Placemark><name>
		        Fallecimiento de Martinez Gonzalez, Victoria</name><description>
	            Lugar de fallecimiento: Oviedo. Fecha de nacimiento:2007-11-14</description><Point><coordinates>43.3151619,43.3151619</coordinates></Point></Placemark><Placemark><name>
		    Nacimiento de Gonzalez Queipo, Maria Victoria</name><description>
	    Lugar de nacimiento: Oviedo. Fecha de nacimiento:1902-11-14</description><Point><coordinates>-5.8262014,43.3151619</coordinates></Point></Placemark><Placemark><name>
		        Fallecimiento de Gonzalez Queipo, Maria Victoria</name><description>
	            Lugar de fallecimiento: Oviedo. Fecha de nacimiento:2007-11-14</description><Point><coordinates>43.3151619,43.3151619</coordinates></Point></Placemark><Placemark><name>
		    Nacimiento de Martinez Gonzalez, Fernando</name><description>
	    Lugar de nacimiento: Taramundi. Fecha de nacimiento:1902-01-13</description><Point><coordinates>-7.08972222222,43.3563888889</coordinates></Point></Placemark><Placemark><name>
		        Fallecimiento de Martinez Gonzalez, Fernando</name><description>
	            Lugar de fallecimiento: Taramundi. Fecha de nacimiento:1982-02-23</description><Point><coordinates>-7.11111111111,43.3616666667</coordinates></Point></Placemark><Placemark><name>
		    Nacimiento de Arrunada Gonzalez, Samuel</name><description>
	    Lugar de nacimiento: San Tirso de Abres. Fecha de nacimiento:1936-04-13</description><Point><coordinates>-7.14666666667,43.4047222222</coordinates></Point></Placemark><Placemark><name>
		        Fallecimiento de Arrunada Gonzalez, Samuel</name><description>
	            Lugar de fallecimiento: San Tirso de Abres. Fecha de nacimiento:1997-09-20</description><Point><coordinates>-7.14666666667,43.4027222222</coordinates></Point></Placemark><Placemark><name>
		    Nacimiento de Gonzalez Gonzalez, Maria del Carmen</name><description>
	    Lugar de nacimiento: San Tirso de Abres. Fecha de nacimiento:1902-01-30</description><Point><coordinates>-7.146666666,43.404</coordinates></Point></Placemark><Placemark><name>
		        Fallecimiento de Gonzalez Gonzalez, Maria del Carmen</name><description>
	            Lugar de fallecimiento: San Tirso de Abres. Fecha de nacimiento:1953-06-12</description><Point><coordinates>-7.14944444444,43.3455555556</coordinates></Point></Placemark><Placemark><name>
		    Nacimiento de Arrunada, Samuel</name><description>
	    Lugar de nacimiento: Taramundi. Fecha de nacimiento:1900-01-13</description><Point><coordinates>-7.10277777778,43.4002777778</coordinates></Point></Placemark><Placemark><name>
		        Fallecimiento de Arrunada, Samuel</name><description>
	            Lugar de fallecimiento: Taramundi. Fecha de nacimiento:1971-03-23</description><Point><coordinates>-7.1125,43.3444444444</coordinates></Point></Placemark><Placemark><name>
		    Nacimiento de Perez Velasco, Jose Ignacio</name><description>
	    Lugar de nacimiento: Navia. Fecha de nacimiento:1969-09-30</description><Point><coordinates>-6.71944444444,43.5444444444</coordinates></Point></Placemark><Placemark><name>
		    Nacimiento de Velasco Martinez, Ladiaulalia</name><description>
	    Lugar de nacimiento: Villapedre. Fecha de nacimiento:1940-01-04</description><Point><coordinates>-6.65,43.5361111111</coordinates></Point></Placemark><Placemark><name>
		    Nacimiento de Martinez Martinez, Ladiaulalia</name><description>
	    Lugar de nacimiento: Villayon. Fecha de nacimiento:1910-09-16</description><Point><coordinates>-6.70532,43.448</coordinates></Point></Placemark><Placemark><name>
		        Fallecimiento de Martinez Martinez, Ladiaulalia</name><description>
	            Lugar de fallecimiento: Navia. Fecha de nacimiento:1950-02-21</description><Point><coordinates>-6.70527777778,43.4472222222</coordinates></Point></Placemark><Placemark><name>
		    Nacimiento de Velasco Gonzalez, Juan Manuel</name><description>
	    Lugar de nacimiento: Villayon. Fecha de nacimiento:1910-07-01</description><Point><coordinates>-6.70532,43.448</coordinates></Point></Placemark><Placemark><name>
		        Fallecimiento de Velasco Gonzalez, Juan Manuel</name><description>
	            Lugar de fallecimiento: Navia. Fecha de nacimiento:1965-08-08</description><Point><coordinates>-6.70527777778,43.4472222222</coordinates></Point></Placemark><Placemark><name>
		    Nacimiento de Perez Perez, Jose Manuel</name><description>
	    Lugar de nacimiento: Villapedre. Fecha de nacimiento:1931-04-30</description><Point><coordinates>-6.65,43.5361111111</coordinates></Point></Placemark><Placemark><name>
		    Nacimiento de Perez Rodriguez, Jose Manuel</name><description>
	    Lugar de nacimiento: Puerto de Vega. Fecha de nacimiento:1887-04-26</description><Point><coordinates>-6.64611111111,43.5641666667</coordinates></Point></Placemark><Placemark><name>
		        Fallecimiento de Perez Rodriguez, Jose Manuel</name><description>
	            Lugar de fallecimiento: Tox. Fecha de nacimiento:1942-08-21</description><Point><coordinates>-6.6584998,43.5537206</coordinates></Point></Placemark><Placemark><name>
		    Nacimiento de Perez, Maria Jose</name><description>
	    Lugar de nacimiento: Puerto de Vega. Fecha de nacimiento:1885-04-23</description><Point><coordinates>-6.64611111111,43.5641666667</coordinates></Point></Placemark><Placemark><name>
		        Fallecimiento de Perez, Maria Jose</name><description>
	            Lugar de fallecimiento: Tox. Fecha de nacimiento:1948-12-08</description><Point><coordinates>-6.6584998,43.5537206</coordinates></Point></Placemark></Document>